{
  "_README": "ECNL (Elite Clubs National League) member-club roster — partial verified subset. Sources cited per pin. Same data discipline as the rest of the soccer-map dataset: only entries with a citable source. Full ECNL roster (~120 girls clubs + ~85 boys clubs) requires a Puppeteer scraper of theecnl.com — that's queued, see _NEXT_BUILD_NOTE.",
  "_LAST_UPDATED": "2026-05-05",
  "_SOURCE": "Wikipedia · Elite_Clubs_National_League (article body + history sections, verified 2026-05-05)",
  "_NEXT_BUILD_NOTE": "theecnl.com club locator is dynamic JS, not WebFetch-able. To complete this dataset: write a Puppeteer scraper that hits the ECNL club-finder API directly + dumps to this file. Run quarterly. Until then, audience-scoped Google Places county scout (clicking a county on the map → 'ECNL Club / Academy') gives a working substitute.",
  "_DIVISION_KEY": "boys = ECNL Boys, girls = ECNL Girls, both = same-named club competes in both divisions",
  "_LAT_LNG_NOTE": "Coordinates are city/metro-center approximations. Actual training-facility addresses require dealer-locator scrape.",
  "clubs": [
    { "name": "Crossfire Premier SC", "city": "Redmond", "state": "WA", "lat": 47.6740, "lng": -122.1215, "division": "boys" },
    { "name": "San Diego Surf SC", "city": "San Diego", "state": "CA", "lat": 32.7157, "lng": -117.1611, "division": "both" },
    { "name": "LAFC Slammers", "city": "Newport Beach", "state": "CA", "lat": 33.6189, "lng": -117.9298, "division": "girls" },
    { "name": "LAFC So Cal Youth", "city": "Los Angeles", "state": "CA", "lat": 34.0522, "lng": -118.2437, "division": "boys" },
    { "name": "Beach FC", "city": "Long Beach", "state": "CA", "lat": 33.7701, "lng": -118.1937, "division": "girls" },
    { "name": "MVLA SC", "city": "Mountain View", "state": "CA", "lat": 37.3861, "lng": -122.0839, "division": "girls" },
    { "name": "De Anza Force", "city": "Cupertino", "state": "CA", "lat": 37.3230, "lng": -122.0322, "division": "girls" },
    { "name": "Real So Cal", "city": "Thousand Oaks", "state": "CA", "lat": 34.1706, "lng": -118.8376, "division": "girls" },
    { "name": "Southern California Blues SC", "city": "Newport Beach", "state": "CA", "lat": 33.6189, "lng": -117.9298, "division": "girls" },
    { "name": "West Coast FC", "city": "Riverside", "state": "CA", "lat": 33.9533, "lng": -117.3962, "division": "girls" },
    { "name": "Legends FC", "city": "Loma Linda", "state": "CA", "lat": 34.0481, "lng": -117.2612, "division": "boys" },
    { "name": "Slammers FC", "city": "Newport Beach", "state": "CA", "lat": 33.6189, "lng": -117.9298, "division": "girls" },
    { "name": "Eclipse Select SC", "city": "Northbrook", "state": "IL", "lat": 42.1275, "lng": -87.8290, "division": "girls" },
    { "name": "Players Development Academy", "city": "Somerset", "state": "NJ", "lat": 40.4970, "lng": -74.4882, "division": "girls" },
    { "name": "Match Fit Academy", "city": "Allentown", "state": "NJ", "lat": 40.1781, "lng": -74.5875, "division": "girls" },
    { "name": "Michigan Hawks SC", "city": "Livonia", "state": "MI", "lat": 42.3684, "lng": -83.3527, "division": "girls" },
    { "name": "Sting SC", "city": "Plano", "state": "TX", "lat": 33.0198, "lng": -96.6989, "division": "girls" },
    { "name": "Solar SC", "city": "Plano", "state": "TX", "lat": 33.0198, "lng": -96.6989, "division": "girls" },
    { "name": "Lonestar SC", "city": "Austin", "state": "TX", "lat": 30.2672, "lng": -97.7431, "division": "girls" },
    { "name": "Arsenal SC", "city": "Houston", "state": "TX", "lat": 29.7604, "lng": -95.3698, "division": "girls" },
    { "name": "FC Dallas", "city": "Frisco", "state": "TX", "lat": 33.1507, "lng": -96.8236, "division": "both" },
    { "name": "Dallas Texans SC", "city": "Dallas", "state": "TX", "lat": 32.7767, "lng": -96.7970, "division": "boys" },
    { "name": "Classics Elite SA", "city": "Dallas", "state": "TX", "lat": 32.7767, "lng": -96.7970, "division": "boys" },
    { "name": "D'Feeters Kicks SC", "city": "Coppell", "state": "TX", "lat": 32.9546, "lng": -96.9899, "division": "boys" },
    { "name": "Tulsa SC", "city": "Tulsa", "state": "OK", "lat": 36.1540, "lng": -95.9928, "division": "boys" },
    { "name": "Oklahoma Energy FC", "city": "Oklahoma City", "state": "OK", "lat": 35.4676, "lng": -97.5164, "division": "boys" },
    { "name": "Tennessee SC", "city": "Nashville", "state": "TN", "lat": 36.1627, "lng": -86.7816, "division": "boys" },
    { "name": "Real Colorado", "city": "Centennial", "state": "CO", "lat": 39.5807, "lng": -104.8772, "division": "girls" },
    { "name": "Colorado Rush SC", "city": "Denver", "state": "CO", "lat": 39.7392, "lng": -104.9903, "division": "girls" },
    { "name": "Utah Avalanche SC", "city": "Salt Lake City", "state": "UT", "lat": 40.7608, "lng": -111.8910, "division": "boys" },
    { "name": "St. Louis Scott Gallagher SC", "city": "St. Louis", "state": "MO", "lat": 38.6270, "lng": -90.1994, "division": "girls" },
    { "name": "Kansas City FC Intensity", "city": "Olathe", "state": "KS", "lat": 38.8814, "lng": -94.8191, "division": "girls" },
    { "name": "KC Athletics SC", "city": "Kansas City", "state": "KS", "lat": 39.1142, "lng": -94.6275, "division": "girls" },
    { "name": "Cincinnati United Premier", "city": "Cincinnati", "state": "OH", "lat": 39.1031, "lng": -84.5120, "division": "girls" },
    { "name": "Ohio Premier SC", "city": "Columbus", "state": "OH", "lat": 39.9612, "lng": -82.9988, "division": "girls" },
    { "name": "Florida Kraze Krush", "city": "Lake Mary", "state": "FL", "lat": 28.7592, "lng": -81.3187, "division": "girls" },
    { "name": "Florida Premier FC", "city": "Tampa", "state": "FL", "lat": 27.9506, "lng": -82.4572, "division": "boys" },
    { "name": "Concorde Fire SC", "city": "Atlanta", "state": "GA", "lat": 33.7490, "lng": -84.3880, "division": "girls" },
    { "name": "NASA Tophat", "city": "Atlanta", "state": "GA", "lat": 33.7490, "lng": -84.3880, "division": "boys" },
    { "name": "Gwinnett Soccer Academy", "city": "Lawrenceville", "state": "GA", "lat": 33.9562, "lng": -83.9879, "division": "girls" },
    { "name": "Capital Area Soccer League (CASL)", "city": "Raleigh", "state": "NC", "lat": 35.7796, "lng": -78.6382, "division": "girls" },
    { "name": "Charlotte Independence SC", "city": "Charlotte", "state": "NC", "lat": 35.2271, "lng": -80.8431, "division": "boys" },
    { "name": "Penn Fusion", "city": "West Chester", "state": "PA", "lat": 39.9601, "lng": -75.6055, "division": "girls" },
    { "name": "GPS Massachusetts", "city": "Wrentham", "state": "MA", "lat": 42.0682, "lng": -71.3328, "division": "boys" },
    { "name": "NEFC", "city": "Sudbury", "state": "MA", "lat": 42.3834, "lng": -71.4162, "division": "boys" },
    { "name": "Connecticut FC", "city": "South Windsor", "state": "CT", "lat": 41.8231, "lng": -72.6225, "division": "girls" },
    { "name": "FSA FC", "city": "Hamden", "state": "CT", "lat": 41.3957, "lng": -72.8967, "division": "boys" },
    { "name": "FC Virginia", "city": "Vienna", "state": "VA", "lat": 38.9012, "lng": -77.2653, "division": "girls" },
    { "name": "Richmond United", "city": "Richmond", "state": "VA", "lat": 37.5407, "lng": -77.4360, "division": "boys" },
    { "name": "Virginia Development Academy", "city": "Spotsylvania", "state": "VA", "lat": 38.2009, "lng": -77.5953, "division": "boys" },
    { "name": "McLean Youth Soccer", "city": "McLean", "state": "VA", "lat": 38.9339, "lng": -77.1773, "division": "girls" },
    { "name": "Pipeline SC", "city": "Baltimore", "state": "MD", "lat": 39.2904, "lng": -76.6122, "division": "boys" },
    { "name": "Carolina Elite SA", "city": "Greenville", "state": "SC", "lat": 34.8526, "lng": -82.3940, "division": "boys" },
    { "name": "South Carolina Surf SC", "city": "Columbia", "state": "SC", "lat": 34.0007, "lng": -81.0348, "division": "boys" }
  ]
}
