{
  "_README": "Top ~120 US cities by population. Used to draw population-sized bullets on the Tekky map. Soccer-town entries override these (the soccer-town list is the same kind of bullet but golden + with audience scores). Lat/lng + population approximate (2024 estimates). Expand freely.",
  "cities": [
    { "name": "New York", "state": "NY", "lat": 40.7128, "lng": -74.0060, "population": 8400000 },
    { "name": "Los Angeles", "state": "CA", "lat": 34.0522, "lng": -118.2437, "population": 3900000 },
    { "name": "Chicago", "state": "IL", "lat": 41.8781, "lng": -87.6298, "population": 2700000 },
    { "name": "Houston", "state": "TX", "lat": 29.7604, "lng": -95.3698, "population": 2310000 },
    { "name": "Phoenix", "state": "AZ", "lat": 33.4484, "lng": -112.0740, "population": 1640000 },
    { "name": "Philadelphia", "state": "PA", "lat": 39.9526, "lng": -75.1652, "population": 1600000 },
    { "name": "San Antonio", "state": "TX", "lat": 29.4241, "lng": -98.4936, "population": 1470000 },
    { "name": "San Diego", "state": "CA", "lat": 32.7157, "lng": -117.1611, "population": 1420000 },
    { "name": "Dallas", "state": "TX", "lat": 32.7767, "lng": -96.7970, "population": 1300000 },
    { "name": "Jacksonville", "state": "FL", "lat": 30.3322, "lng": -81.6557, "population": 970000 },
    { "name": "Austin", "state": "TX", "lat": 30.2672, "lng": -97.7431, "population": 970000 },
    { "name": "Fort Worth", "state": "TX", "lat": 32.7555, "lng": -97.3308, "population": 960000 },
    { "name": "San Jose", "state": "CA", "lat": 37.3382, "lng": -121.8863, "population": 1000000 },
    { "name": "Columbus", "state": "OH", "lat": 39.9612, "lng": -82.9988, "population": 905000 },
    { "name": "Charlotte", "state": "NC", "lat": 35.2271, "lng": -80.8431, "population": 875000 },
    { "name": "Indianapolis", "state": "IN", "lat": 39.7684, "lng": -86.1581, "population": 880000 },
    { "name": "San Francisco", "state": "CA", "lat": 37.7749, "lng": -122.4194, "population": 815000 },
    { "name": "Seattle", "state": "WA", "lat": 47.6062, "lng": -122.3321, "population": 750000 },
    { "name": "Denver", "state": "CO", "lat": 39.7392, "lng": -104.9903, "population": 715000 },
    { "name": "Nashville", "state": "TN", "lat": 36.1627, "lng": -86.7816, "population": 695000 },
    { "name": "Oklahoma City", "state": "OK", "lat": 35.4676, "lng": -97.5164, "population": 690000 },
    { "name": "El Paso", "state": "TX", "lat": 31.7619, "lng": -106.4850, "population": 680000 },
    { "name": "Washington", "state": "DC", "lat": 38.9072, "lng": -77.0369, "population": 670000 },
    { "name": "Boston", "state": "MA", "lat": 42.3601, "lng": -71.0589, "population": 675000 },
    { "name": "Las Vegas", "state": "NV", "lat": 36.1699, "lng": -115.1398, "population": 660000 },
    { "name": "Portland", "state": "OR", "lat": 45.5152, "lng": -122.6784, "population": 650000 },
    { "name": "Detroit", "state": "MI", "lat": 42.3314, "lng": -83.0458, "population": 630000 },
    { "name": "Louisville", "state": "KY", "lat": 38.2527, "lng": -85.7585, "population": 625000 },
    { "name": "Memphis", "state": "TN", "lat": 35.1495, "lng": -90.0490, "population": 625000 },
    { "name": "Baltimore", "state": "MD", "lat": 39.2904, "lng": -76.6122, "population": 575000 },
    { "name": "Milwaukee", "state": "WI", "lat": 43.0389, "lng": -87.9065, "population": 570000 },
    { "name": "Albuquerque", "state": "NM", "lat": 35.0844, "lng": -106.6504, "population": 565000 },
    { "name": "Tucson", "state": "AZ", "lat": 32.2226, "lng": -110.9747, "population": 545000 },
    { "name": "Fresno", "state": "CA", "lat": 36.7378, "lng": -119.7871, "population": 545000 },
    { "name": "Sacramento", "state": "CA", "lat": 38.5816, "lng": -121.4944, "population": 525000 },
    { "name": "Mesa", "state": "AZ", "lat": 33.4152, "lng": -111.8315, "population": 510000 },
    { "name": "Kansas City", "state": "MO", "lat": 39.0997, "lng": -94.5786, "population": 510000 },
    { "name": "Atlanta", "state": "GA", "lat": 33.7490, "lng": -84.3880, "population": 500000 },
    { "name": "Omaha", "state": "NE", "lat": 41.2565, "lng": -95.9345, "population": 490000 },
    { "name": "Colorado Springs", "state": "CO", "lat": 38.8339, "lng": -104.8214, "population": 480000 },
    { "name": "Raleigh", "state": "NC", "lat": 35.7796, "lng": -78.6382, "population": 470000 },
    { "name": "Miami", "state": "FL", "lat": 25.7617, "lng": -80.1918, "population": 470000 },
    { "name": "Long Beach", "state": "CA", "lat": 33.7701, "lng": -118.1937, "population": 460000 },
    { "name": "Virginia Beach", "state": "VA", "lat": 36.8529, "lng": -75.9780, "population": 455000 },
    { "name": "Oakland", "state": "CA", "lat": 37.8044, "lng": -122.2712, "population": 440000 },
    { "name": "Minneapolis", "state": "MN", "lat": 44.9778, "lng": -93.2650, "population": 425000 },
    { "name": "Tulsa", "state": "OK", "lat": 36.1540, "lng": -95.9928, "population": 410000 },
    { "name": "Tampa", "state": "FL", "lat": 27.9506, "lng": -82.4572, "population": 400000 },
    { "name": "Arlington", "state": "TX", "lat": 32.7357, "lng": -97.1081, "population": 395000 },
    { "name": "New Orleans", "state": "LA", "lat": 29.9511, "lng": -90.0715, "population": 380000 },
    { "name": "Wichita", "state": "KS", "lat": 37.6872, "lng": -97.3301, "population": 395000 },
    { "name": "Cleveland", "state": "OH", "lat": 41.4993, "lng": -81.6944, "population": 370000 },
    { "name": "Bakersfield", "state": "CA", "lat": 35.3733, "lng": -119.0187, "population": 410000 },
    { "name": "Aurora", "state": "CO", "lat": 39.7294, "lng": -104.8319, "population": 390000 },
    { "name": "Anaheim", "state": "CA", "lat": 33.8366, "lng": -117.9143, "population": 350000 },
    { "name": "Honolulu", "state": "HI", "lat": 21.3069, "lng": -157.8583, "population": 350000 },
    { "name": "Santa Ana", "state": "CA", "lat": 33.7455, "lng": -117.8677, "population": 310000 },
    { "name": "Riverside", "state": "CA", "lat": 33.9533, "lng": -117.3962, "population": 320000 },
    { "name": "Corpus Christi", "state": "TX", "lat": 27.8006, "lng": -97.3964, "population": 320000 },
    { "name": "Lexington", "state": "KY", "lat": 38.0406, "lng": -84.5037, "population": 320000 },
    { "name": "Henderson", "state": "NV", "lat": 36.0395, "lng": -114.9817, "population": 325000 },
    { "name": "Stockton", "state": "CA", "lat": 37.9577, "lng": -121.2908, "population": 320000 },
    { "name": "St. Paul", "state": "MN", "lat": 44.9537, "lng": -93.0900, "population": 310000 },
    { "name": "Cincinnati", "state": "OH", "lat": 39.1031, "lng": -84.5120, "population": 310000 },
    { "name": "St. Louis", "state": "MO", "lat": 38.6270, "lng": -90.1994, "population": 295000 },
    { "name": "Pittsburgh", "state": "PA", "lat": 40.4406, "lng": -79.9959, "population": 305000 },
    { "name": "Greensboro", "state": "NC", "lat": 36.0726, "lng": -79.7920, "population": 300000 },
    { "name": "Lincoln", "state": "NE", "lat": 40.8136, "lng": -96.7026, "population": 295000 },
    { "name": "Anchorage", "state": "AK", "lat": 61.2181, "lng": -149.9003, "population": 290000 },
    { "name": "Plano", "state": "TX", "lat": 33.0198, "lng": -96.6989, "population": 290000 },
    { "name": "Orlando", "state": "FL", "lat": 28.5383, "lng": -81.3792, "population": 310000 },
    { "name": "Irvine", "state": "CA", "lat": 33.6846, "lng": -117.8265, "population": 310000 },
    { "name": "Newark", "state": "NJ", "lat": 40.7357, "lng": -74.1724, "population": 305000 },
    { "name": "Toledo", "state": "OH", "lat": 41.6528, "lng": -83.5379, "population": 270000 },
    { "name": "Durham", "state": "NC", "lat": 35.9940, "lng": -78.8986, "population": 285000 },
    { "name": "Chula Vista", "state": "CA", "lat": 32.6401, "lng": -117.0842, "population": 280000 },
    { "name": "Fort Wayne", "state": "IN", "lat": 41.0793, "lng": -85.1394, "population": 270000 },
    { "name": "Jersey City", "state": "NJ", "lat": 40.7178, "lng": -74.0431, "population": 295000 },
    { "name": "St. Petersburg", "state": "FL", "lat": 27.7676, "lng": -82.6403, "population": 260000 },
    { "name": "Laredo", "state": "TX", "lat": 27.5306, "lng": -99.4803, "population": 260000 },
    { "name": "Madison", "state": "WI", "lat": 43.0731, "lng": -89.4012, "population": 270000 },
    { "name": "Chandler", "state": "AZ", "lat": 33.3062, "lng": -111.8413, "population": 280000 },
    { "name": "Buffalo", "state": "NY", "lat": 42.8864, "lng": -78.8784, "population": 275000 },
    { "name": "Lubbock", "state": "TX", "lat": 33.5779, "lng": -101.8552, "population": 265000 },
    { "name": "Scottsdale", "state": "AZ", "lat": 33.4942, "lng": -111.9261, "population": 240000 },
    { "name": "Reno", "state": "NV", "lat": 39.5296, "lng": -119.8138, "population": 270000 },
    { "name": "Glendale", "state": "AZ", "lat": 33.5387, "lng": -112.1860, "population": 250000 },
    { "name": "Gilbert", "state": "AZ", "lat": 33.3528, "lng": -111.7890, "population": 270000 },
    { "name": "Winston-Salem", "state": "NC", "lat": 36.0999, "lng": -80.2442, "population": 250000 },
    { "name": "North Las Vegas", "state": "NV", "lat": 36.1989, "lng": -115.1175, "population": 270000 },
    { "name": "Norfolk", "state": "VA", "lat": 36.8508, "lng": -76.2859, "population": 235000 },
    { "name": "Chesapeake", "state": "VA", "lat": 36.7682, "lng": -76.2875, "population": 250000 },
    { "name": "Garland", "state": "TX", "lat": 32.9126, "lng": -96.6389, "population": 240000 },
    { "name": "Irving", "state": "TX", "lat": 32.8140, "lng": -96.9489, "population": 240000 },
    { "name": "Hialeah", "state": "FL", "lat": 25.8576, "lng": -80.2781, "population": 220000 },
    { "name": "Fremont", "state": "CA", "lat": 37.5485, "lng": -121.9886, "population": 230000 },
    { "name": "Boise", "state": "ID", "lat": 43.6150, "lng": -116.2023, "population": 240000 },
    { "name": "Richmond", "state": "VA", "lat": 37.5407, "lng": -77.4360, "population": 230000 },
    { "name": "Baton Rouge", "state": "LA", "lat": 30.4515, "lng": -91.1871, "population": 225000 },
    { "name": "Spokane", "state": "WA", "lat": 47.6588, "lng": -117.4260, "population": 230000 },
    { "name": "Des Moines", "state": "IA", "lat": 41.5868, "lng": -93.6250, "population": 215000 },
    { "name": "Tacoma", "state": "WA", "lat": 47.2529, "lng": -122.4443, "population": 220000 },
    { "name": "San Bernardino", "state": "CA", "lat": 34.1083, "lng": -117.2898, "population": 220000 },
    { "name": "Modesto", "state": "CA", "lat": 37.6391, "lng": -120.9969, "population": 215000 },
    { "name": "Fontana", "state": "CA", "lat": 34.0922, "lng": -117.4350, "population": 210000 },
    { "name": "Santa Clarita", "state": "CA", "lat": 34.3917, "lng": -118.5426, "population": 230000 },
    { "name": "Birmingham", "state": "AL", "lat": 33.5186, "lng": -86.8104, "population": 200000 },
    { "name": "Oxnard", "state": "CA", "lat": 34.1975, "lng": -119.1771, "population": 205000 },
    { "name": "Fayetteville", "state": "NC", "lat": 35.0527, "lng": -78.8784, "population": 210000 },
    { "name": "Moreno Valley", "state": "CA", "lat": 33.9425, "lng": -117.2297, "population": 215000 },
    { "name": "Frisco", "state": "TX", "lat": 33.1507, "lng": -96.8236, "population": 226000 },
    { "name": "Rochester", "state": "NY", "lat": 43.1566, "lng": -77.6088, "population": 210000 },
    { "name": "Cape Coral", "state": "FL", "lat": 26.5629, "lng": -81.9495, "population": 220000 },
    { "name": "Glendale", "state": "CA", "lat": 34.1425, "lng": -118.2551, "population": 200000 },
    { "name": "Salt Lake City", "state": "UT", "lat": 40.7608, "lng": -111.8910, "population": 200000 },
    { "name": "Huntsville", "state": "AL", "lat": 34.7304, "lng": -86.5861, "population": 220000 },
    { "name": "Grand Rapids", "state": "MI", "lat": 42.9634, "lng": -85.6681, "population": 200000 },
    { "name": "Worcester", "state": "MA", "lat": 42.2626, "lng": -71.8023, "population": 205000 },
    { "name": "Tallahassee", "state": "FL", "lat": 30.4383, "lng": -84.2807, "population": 200000 },
    { "name": "Knoxville", "state": "TN", "lat": 35.9606, "lng": -83.9207, "population": 195000 },
    { "name": "Akron", "state": "OH", "lat": 41.0814, "lng": -81.5190, "population": 190000 },
    { "name": "Mobile", "state": "AL", "lat": 30.6954, "lng": -88.0399, "population": 185000 },
    { "name": "Little Rock", "state": "AR", "lat": 34.7465, "lng": -92.2896, "population": 200000 },
    { "name": "Augusta", "state": "GA", "lat": 33.4735, "lng": -82.0105, "population": 200000 }
  ]
}
