{
  "_README": "Top US cities by population — at least 5 entries per state where possible. Used to draw population-sized bullets on the map and the 'Top cities by population' sidebar list when a state is selected. Population figures are approximate 2020 US Census estimates of incorporated places. Lat/lng are downtown approximations sufficient for a national-scale map.",
  "_LAST_UPDATED": "2026-05-04",
  "_SOURCE": "US Census Bureau population estimates (incorporated places)",
  "cities": [
    { "name": "Birmingham", "state": "AL", "lat": 33.5186, "lng": -86.8104, "population": 200000 },
    { "name": "Montgomery", "state": "AL", "lat": 32.3792, "lng": -86.3077, "population": 198000 },
    { "name": "Huntsville", "state": "AL", "lat": 34.7304, "lng": -86.5861, "population": 220000 },
    { "name": "Mobile", "state": "AL", "lat": 30.6954, "lng": -88.0399, "population": 185000 },
    { "name": "Tuscaloosa", "state": "AL", "lat": 33.2098, "lng": -87.5692, "population": 100000 },

    { "name": "Anchorage", "state": "AK", "lat": 61.2181, "lng": -149.9003, "population": 290000 },
    { "name": "Fairbanks", "state": "AK", "lat": 64.8378, "lng": -147.7164, "population": 32000 },
    { "name": "Juneau", "state": "AK", "lat": 58.3019, "lng": -134.4197, "population": 32000 },
    { "name": "Wasilla", "state": "AK", "lat": 61.5814, "lng": -149.4394, "population": 11000 },

    { "name": "Phoenix", "state": "AZ", "lat": 33.4484, "lng": -112.0740, "population": 1640000 },
    { "name": "Tucson", "state": "AZ", "lat": 32.2226, "lng": -110.9747, "population": 545000 },
    { "name": "Mesa", "state": "AZ", "lat": 33.4152, "lng": -111.8315, "population": 510000 },
    { "name": "Chandler", "state": "AZ", "lat": 33.3062, "lng": -111.8413, "population": 280000 },
    { "name": "Scottsdale", "state": "AZ", "lat": 33.4942, "lng": -111.9261, "population": 240000 },
    { "name": "Glendale", "state": "AZ", "lat": 33.5387, "lng": -112.1860, "population": 250000 },
    { "name": "Gilbert", "state": "AZ", "lat": 33.3528, "lng": -111.7890, "population": 270000 },

    { "name": "Little Rock", "state": "AR", "lat": 34.7465, "lng": -92.2896, "population": 200000 },
    { "name": "Fort Smith", "state": "AR", "lat": 35.3859, "lng": -94.3985, "population": 89000 },
    { "name": "Fayetteville", "state": "AR", "lat": 36.0626, "lng": -94.1574, "population": 95000 },
    { "name": "Springdale", "state": "AR", "lat": 36.1867, "lng": -94.1288, "population": 87000 },
    { "name": "Jonesboro", "state": "AR", "lat": 35.8423, "lng": -90.7043, "population": 79000 },

    { "name": "Los Angeles", "state": "CA", "lat": 34.0522, "lng": -118.2437, "population": 3900000 },
    { "name": "San Diego", "state": "CA", "lat": 32.7157, "lng": -117.1611, "population": 1420000 },
    { "name": "San Jose", "state": "CA", "lat": 37.3382, "lng": -121.8863, "population": 1000000 },
    { "name": "San Francisco", "state": "CA", "lat": 37.7749, "lng": -122.4194, "population": 815000 },
    { "name": "Fresno", "state": "CA", "lat": 36.7378, "lng": -119.7871, "population": 545000 },
    { "name": "Sacramento", "state": "CA", "lat": 38.5816, "lng": -121.4944, "population": 525000 },
    { "name": "Long Beach", "state": "CA", "lat": 33.7701, "lng": -118.1937, "population": 460000 },
    { "name": "Oakland", "state": "CA", "lat": 37.8044, "lng": -122.2712, "population": 440000 },
    { "name": "Bakersfield", "state": "CA", "lat": 35.3733, "lng": -119.0187, "population": 410000 },
    { "name": "Anaheim", "state": "CA", "lat": 33.8366, "lng": -117.9143, "population": 350000 },
    { "name": "Santa Ana", "state": "CA", "lat": 33.7455, "lng": -117.8677, "population": 310000 },
    { "name": "Riverside", "state": "CA", "lat": 33.9533, "lng": -117.3962, "population": 320000 },
    { "name": "Stockton", "state": "CA", "lat": 37.9577, "lng": -121.2908, "population": 320000 },
    { "name": "Irvine", "state": "CA", "lat": 33.6846, "lng": -117.8265, "population": 310000 },
    { "name": "Chula Vista", "state": "CA", "lat": 32.6401, "lng": -117.0842, "population": 280000 },
    { "name": "Fremont", "state": "CA", "lat": 37.5485, "lng": -121.9886, "population": 230000 },
    { "name": "Modesto", "state": "CA", "lat": 37.6391, "lng": -120.9969, "population": 215000 },
    { "name": "Oxnard", "state": "CA", "lat": 34.1975, "lng": -119.1771, "population": 205000 },
    { "name": "Fontana", "state": "CA", "lat": 34.0922, "lng": -117.4350, "population": 210000 },
    { "name": "Moreno Valley", "state": "CA", "lat": 33.9425, "lng": -117.2297, "population": 215000 },
    { "name": "San Bernardino", "state": "CA", "lat": 34.1083, "lng": -117.2898, "population": 220000 },
    { "name": "Glendale", "state": "CA", "lat": 34.1425, "lng": -118.2551, "population": 200000 },
    { "name": "Santa Clarita", "state": "CA", "lat": 34.3917, "lng": -118.5426, "population": 230000 },

    { "name": "Denver", "state": "CO", "lat": 39.7392, "lng": -104.9903, "population": 715000 },
    { "name": "Colorado Springs", "state": "CO", "lat": 38.8339, "lng": -104.8214, "population": 480000 },
    { "name": "Aurora", "state": "CO", "lat": 39.7294, "lng": -104.8319, "population": 390000 },
    { "name": "Fort Collins", "state": "CO", "lat": 40.5853, "lng": -105.0844, "population": 170000 },
    { "name": "Lakewood", "state": "CO", "lat": 39.7047, "lng": -105.0814, "population": 156000 },
    { "name": "Thornton", "state": "CO", "lat": 39.8680, "lng": -104.9719, "population": 142000 },
    { "name": "Arvada", "state": "CO", "lat": 39.8028, "lng": -105.0875, "population": 124000 },

    { "name": "Bridgeport", "state": "CT", "lat": 41.1865, "lng": -73.1952, "population": 148000 },
    { "name": "New Haven", "state": "CT", "lat": 41.3083, "lng": -72.9279, "population": 134000 },
    { "name": "Stamford", "state": "CT", "lat": 41.0534, "lng": -73.5387, "population": 135000 },
    { "name": "Hartford", "state": "CT", "lat": 41.7658, "lng": -72.6734, "population": 121000 },
    { "name": "Waterbury", "state": "CT", "lat": 41.5582, "lng": -73.0515, "population": 114000 },

    { "name": "Wilmington", "state": "DE", "lat": 39.7391, "lng": -75.5398, "population": 71000 },
    { "name": "Dover", "state": "DE", "lat": 39.1582, "lng": -75.5244, "population": 39000 },
    { "name": "Newark", "state": "DE", "lat": 39.6837, "lng": -75.7497, "population": 31000 },
    { "name": "Middletown", "state": "DE", "lat": 39.4496, "lng": -75.7163, "population": 23000 },

    { "name": "Washington", "state": "DC", "lat": 38.9072, "lng": -77.0369, "population": 670000 },

    { "name": "Jacksonville", "state": "FL", "lat": 30.3322, "lng": -81.6557, "population": 970000 },
    { "name": "Miami", "state": "FL", "lat": 25.7617, "lng": -80.1918, "population": 470000 },
    { "name": "Tampa", "state": "FL", "lat": 27.9506, "lng": -82.4572, "population": 400000 },
    { "name": "Orlando", "state": "FL", "lat": 28.5383, "lng": -81.3792, "population": 310000 },
    { "name": "St. Petersburg", "state": "FL", "lat": 27.7676, "lng": -82.6403, "population": 260000 },
    { "name": "Hialeah", "state": "FL", "lat": 25.8576, "lng": -80.2781, "population": 220000 },
    { "name": "Tallahassee", "state": "FL", "lat": 30.4383, "lng": -84.2807, "population": 200000 },
    { "name": "Fort Lauderdale", "state": "FL", "lat": 26.1224, "lng": -80.1373, "population": 185000 },
    { "name": "Cape Coral", "state": "FL", "lat": 26.5629, "lng": -81.9495, "population": 220000 },
    { "name": "Port St. Lucie", "state": "FL", "lat": 27.2730, "lng": -80.3582, "population": 220000 },

    { "name": "Atlanta", "state": "GA", "lat": 33.7490, "lng": -84.3880, "population": 500000 },
    { "name": "Augusta", "state": "GA", "lat": 33.4735, "lng": -82.0105, "population": 200000 },
    { "name": "Columbus", "state": "GA", "lat": 32.4610, "lng": -84.9877, "population": 195000 },
    { "name": "Macon", "state": "GA", "lat": 32.8407, "lng": -83.6324, "population": 154000 },
    { "name": "Savannah", "state": "GA", "lat": 32.0809, "lng": -81.0912, "population": 145000 },
    { "name": "Athens", "state": "GA", "lat": 33.9519, "lng": -83.3576, "population": 127000 },

    { "name": "Honolulu", "state": "HI", "lat": 21.3069, "lng": -157.8583, "population": 350000 },
    { "name": "Hilo", "state": "HI", "lat": 19.7297, "lng": -155.0900, "population": 44000 },
    { "name": "Kailua", "state": "HI", "lat": 21.3920, "lng": -157.7395, "population": 41000 },
    { "name": "Kaneohe", "state": "HI", "lat": 21.4022, "lng": -157.7986, "population": 35000 },

    { "name": "Boise", "state": "ID", "lat": 43.6150, "lng": -116.2023, "population": 240000 },
    { "name": "Meridian", "state": "ID", "lat": 43.6121, "lng": -116.3915, "population": 130000 },
    { "name": "Nampa", "state": "ID", "lat": 43.5407, "lng": -116.5635, "population": 110000 },
    { "name": "Idaho Falls", "state": "ID", "lat": 43.4666, "lng": -112.0341, "population": 65000 },
    { "name": "Pocatello", "state": "ID", "lat": 42.8713, "lng": -112.4455, "population": 56000 },

    { "name": "Chicago", "state": "IL", "lat": 41.8781, "lng": -87.6298, "population": 2700000 },
    { "name": "Aurora", "state": "IL", "lat": 41.7606, "lng": -88.3201, "population": 180000 },
    { "name": "Naperville", "state": "IL", "lat": 41.7508, "lng": -88.1535, "population": 150000 },
    { "name": "Joliet", "state": "IL", "lat": 41.5250, "lng": -88.0817, "population": 150000 },
    { "name": "Rockford", "state": "IL", "lat": 42.2711, "lng": -89.0937, "population": 148000 },
    { "name": "Springfield", "state": "IL", "lat": 39.7817, "lng": -89.6501, "population": 114000 },
    { "name": "Elgin", "state": "IL", "lat": 42.0354, "lng": -88.2826, "population": 114000 },
    { "name": "Peoria", "state": "IL", "lat": 40.6936, "lng": -89.5890, "population": 113000 },

    { "name": "Indianapolis", "state": "IN", "lat": 39.7684, "lng": -86.1581, "population": 880000 },
    { "name": "Fort Wayne", "state": "IN", "lat": 41.0793, "lng": -85.1394, "population": 270000 },
    { "name": "Evansville", "state": "IN", "lat": 37.9716, "lng": -87.5711, "population": 117000 },
    { "name": "South Bend", "state": "IN", "lat": 41.6764, "lng": -86.2520, "population": 103000 },
    { "name": "Carmel", "state": "IN", "lat": 39.9784, "lng": -86.1180, "population": 100000 },
    { "name": "Fishers", "state": "IN", "lat": 39.9568, "lng": -86.0135, "population": 99000 },
    { "name": "Bloomington", "state": "IN", "lat": 39.1653, "lng": -86.5264, "population": 80000 },

    { "name": "Des Moines", "state": "IA", "lat": 41.5868, "lng": -93.6250, "population": 215000 },
    { "name": "Cedar Rapids", "state": "IA", "lat": 41.9779, "lng": -91.6656, "population": 137000 },
    { "name": "Davenport", "state": "IA", "lat": 41.5236, "lng": -90.5776, "population": 102000 },
    { "name": "Sioux City", "state": "IA", "lat": 42.4999, "lng": -96.4003, "population": 85000 },
    { "name": "Iowa City", "state": "IA", "lat": 41.6611, "lng": -91.5302, "population": 75000 },
    { "name": "Waterloo", "state": "IA", "lat": 42.4928, "lng": -92.3426, "population": 67000 },

    { "name": "Wichita", "state": "KS", "lat": 37.6872, "lng": -97.3301, "population": 395000 },
    { "name": "Overland Park", "state": "KS", "lat": 38.9822, "lng": -94.6708, "population": 197000 },
    { "name": "Kansas City", "state": "KS", "lat": 39.1142, "lng": -94.6275, "population": 156000 },
    { "name": "Olathe", "state": "KS", "lat": 38.8814, "lng": -94.8191, "population": 142000 },
    { "name": "Topeka", "state": "KS", "lat": 39.0473, "lng": -95.6752, "population": 126000 },

    { "name": "Louisville", "state": "KY", "lat": 38.2527, "lng": -85.7585, "population": 625000 },
    { "name": "Lexington", "state": "KY", "lat": 38.0406, "lng": -84.5037, "population": 320000 },
    { "name": "Bowling Green", "state": "KY", "lat": 36.9685, "lng": -86.4808, "population": 75000 },
    { "name": "Owensboro", "state": "KY", "lat": 37.7742, "lng": -87.1133, "population": 60000 },
    { "name": "Covington", "state": "KY", "lat": 39.0837, "lng": -84.5086, "population": 41000 },

    { "name": "New Orleans", "state": "LA", "lat": 29.9511, "lng": -90.0715, "population": 380000 },
    { "name": "Baton Rouge", "state": "LA", "lat": 30.4515, "lng": -91.1871, "population": 225000 },
    { "name": "Shreveport", "state": "LA", "lat": 32.5252, "lng": -93.7502, "population": 187000 },
    { "name": "Lafayette", "state": "LA", "lat": 30.2241, "lng": -92.0198, "population": 121000 },
    { "name": "Lake Charles", "state": "LA", "lat": 30.2266, "lng": -93.2174, "population": 84000 },

    { "name": "Portland", "state": "ME", "lat": 43.6591, "lng": -70.2568, "population": 68000 },
    { "name": "Lewiston", "state": "ME", "lat": 44.1004, "lng": -70.2148, "population": 36000 },
    { "name": "Bangor", "state": "ME", "lat": 44.8016, "lng": -68.7712, "population": 32000 },
    { "name": "Augusta", "state": "ME", "lat": 44.3106, "lng": -69.7795, "population": 18800 },

    { "name": "Baltimore", "state": "MD", "lat": 39.2904, "lng": -76.6122, "population": 575000 },
    { "name": "Frederick", "state": "MD", "lat": 39.4143, "lng": -77.4105, "population": 79000 },
    { "name": "Rockville", "state": "MD", "lat": 39.0840, "lng": -77.1528, "population": 67000 },
    { "name": "Gaithersburg", "state": "MD", "lat": 39.1434, "lng": -77.2014, "population": 70000 },
    { "name": "Bowie", "state": "MD", "lat": 39.0068, "lng": -76.7791, "population": 58000 },
    { "name": "Annapolis", "state": "MD", "lat": 38.9784, "lng": -76.4922, "population": 40000 },

    { "name": "Boston", "state": "MA", "lat": 42.3601, "lng": -71.0589, "population": 675000 },
    { "name": "Worcester", "state": "MA", "lat": 42.2626, "lng": -71.8023, "population": 205000 },
    { "name": "Springfield", "state": "MA", "lat": 42.1015, "lng": -72.5898, "population": 155000 },
    { "name": "Cambridge", "state": "MA", "lat": 42.3736, "lng": -71.1097, "population": 118000 },
    { "name": "Lowell", "state": "MA", "lat": 42.6334, "lng": -71.3162, "population": 115000 },
    { "name": "Brockton", "state": "MA", "lat": 42.0834, "lng": -71.0184, "population": 105000 },
    { "name": "New Bedford", "state": "MA", "lat": 41.6362, "lng": -70.9342, "population": 101000 },
    { "name": "Quincy", "state": "MA", "lat": 42.2529, "lng": -71.0023, "population": 101000 },

    { "name": "Detroit", "state": "MI", "lat": 42.3314, "lng": -83.0458, "population": 630000 },
    { "name": "Grand Rapids", "state": "MI", "lat": 42.9634, "lng": -85.6681, "population": 200000 },
    { "name": "Warren", "state": "MI", "lat": 42.5145, "lng": -83.0146, "population": 134000 },
    { "name": "Sterling Heights", "state": "MI", "lat": 42.5803, "lng": -83.0302, "population": 134000 },
    { "name": "Ann Arbor", "state": "MI", "lat": 42.2808, "lng": -83.7430, "population": 125000 },
    { "name": "Lansing", "state": "MI", "lat": 42.7325, "lng": -84.5555, "population": 113000 },
    { "name": "Flint", "state": "MI", "lat": 43.0125, "lng": -83.6875, "population": 81000 },

    { "name": "Minneapolis", "state": "MN", "lat": 44.9778, "lng": -93.2650, "population": 425000 },
    { "name": "Saint Paul", "state": "MN", "lat": 44.9537, "lng": -93.0900, "population": 310000 },
    { "name": "Rochester", "state": "MN", "lat": 44.0121, "lng": -92.4802, "population": 121000 },
    { "name": "Bloomington", "state": "MN", "lat": 44.8408, "lng": -93.2983, "population": 89000 },
    { "name": "Duluth", "state": "MN", "lat": 46.7867, "lng": -92.1005, "population": 86000 },

    { "name": "Jackson", "state": "MS", "lat": 32.2988, "lng": -90.1848, "population": 145000 },
    { "name": "Gulfport", "state": "MS", "lat": 30.3674, "lng": -89.0928, "population": 72000 },
    { "name": "Southaven", "state": "MS", "lat": 34.9890, "lng": -89.9873, "population": 56000 },
    { "name": "Biloxi", "state": "MS", "lat": 30.3960, "lng": -88.8853, "population": 49000 },
    { "name": "Hattiesburg", "state": "MS", "lat": 31.3271, "lng": -89.2903, "population": 47000 },

    { "name": "Kansas City", "state": "MO", "lat": 39.0997, "lng": -94.5786, "population": 510000 },
    { "name": "St. Louis", "state": "MO", "lat": 38.6270, "lng": -90.1994, "population": 295000 },
    { "name": "Springfield", "state": "MO", "lat": 37.2090, "lng": -93.2923, "population": 169000 },
    { "name": "Columbia", "state": "MO", "lat": 38.9517, "lng": -92.3341, "population": 127000 },
    { "name": "Independence", "state": "MO", "lat": 39.0911, "lng": -94.4155, "population": 124000 },
    { "name": "Lee's Summit", "state": "MO", "lat": 38.9108, "lng": -94.3822, "population": 102000 },

    { "name": "Billings", "state": "MT", "lat": 45.7833, "lng": -108.5007, "population": 117000 },
    { "name": "Missoula", "state": "MT", "lat": 46.8721, "lng": -113.9940, "population": 76000 },
    { "name": "Great Falls", "state": "MT", "lat": 47.5053, "lng": -111.3008, "population": 60000 },
    { "name": "Bozeman", "state": "MT", "lat": 45.6770, "lng": -111.0429, "population": 53000 },
    { "name": "Helena", "state": "MT", "lat": 46.5891, "lng": -112.0391, "population": 33000 },

    { "name": "Omaha", "state": "NE", "lat": 41.2565, "lng": -95.9345, "population": 490000 },
    { "name": "Lincoln", "state": "NE", "lat": 40.8136, "lng": -96.7026, "population": 295000 },
    { "name": "Bellevue", "state": "NE", "lat": 41.1370, "lng": -95.9145, "population": 64000 },
    { "name": "Grand Island", "state": "NE", "lat": 40.9264, "lng": -98.3420, "population": 53000 },
    { "name": "Kearney", "state": "NE", "lat": 40.6993, "lng": -99.0817, "population": 34000 },

    { "name": "Las Vegas", "state": "NV", "lat": 36.1699, "lng": -115.1398, "population": 660000 },
    { "name": "Henderson", "state": "NV", "lat": 36.0395, "lng": -114.9817, "population": 325000 },
    { "name": "North Las Vegas", "state": "NV", "lat": 36.1989, "lng": -115.1175, "population": 270000 },
    { "name": "Reno", "state": "NV", "lat": 39.5296, "lng": -119.8138, "population": 270000 },
    { "name": "Sparks", "state": "NV", "lat": 39.5349, "lng": -119.7527, "population": 110000 },
    { "name": "Carson City", "state": "NV", "lat": 39.1638, "lng": -119.7674, "population": 58000 },

    { "name": "Manchester", "state": "NH", "lat": 42.9956, "lng": -71.4548, "population": 115000 },
    { "name": "Nashua", "state": "NH", "lat": 42.7654, "lng": -71.4676, "population": 91000 },
    { "name": "Concord", "state": "NH", "lat": 43.2081, "lng": -71.5376, "population": 44000 },
    { "name": "Dover", "state": "NH", "lat": 43.1979, "lng": -70.8737, "population": 33000 },
    { "name": "Rochester", "state": "NH", "lat": 43.3045, "lng": -70.9755, "population": 32000 },

    { "name": "Newark", "state": "NJ", "lat": 40.7357, "lng": -74.1724, "population": 305000 },
    { "name": "Jersey City", "state": "NJ", "lat": 40.7178, "lng": -74.0431, "population": 295000 },
    { "name": "Paterson", "state": "NJ", "lat": 40.9168, "lng": -74.1718, "population": 159000 },
    { "name": "Elizabeth", "state": "NJ", "lat": 40.6640, "lng": -74.2107, "population": 137000 },
    { "name": "Edison", "state": "NJ", "lat": 40.5187, "lng": -74.4121, "population": 107000 },
    { "name": "Trenton", "state": "NJ", "lat": 40.2206, "lng": -74.7597, "population": 90000 },

    { "name": "Albuquerque", "state": "NM", "lat": 35.0844, "lng": -106.6504, "population": 565000 },
    { "name": "Las Cruces", "state": "NM", "lat": 32.3199, "lng": -106.7637, "population": 112000 },
    { "name": "Rio Rancho", "state": "NM", "lat": 35.2328, "lng": -106.6630, "population": 105000 },
    { "name": "Santa Fe", "state": "NM", "lat": 35.6870, "lng": -105.9378, "population": 88000 },
    { "name": "Roswell", "state": "NM", "lat": 33.3943, "lng": -104.5230, "population": 48000 },

    { "name": "New York", "state": "NY", "lat": 40.7128, "lng": -74.0060, "population": 8400000 },
    { "name": "Buffalo", "state": "NY", "lat": 42.8864, "lng": -78.8784, "population": 275000 },
    { "name": "Rochester", "state": "NY", "lat": 43.1566, "lng": -77.6088, "population": 210000 },
    { "name": "Yonkers", "state": "NY", "lat": 40.9312, "lng": -73.8987, "population": 211000 },
    { "name": "Syracuse", "state": "NY", "lat": 43.0481, "lng": -76.1474, "population": 148000 },
    { "name": "Albany", "state": "NY", "lat": 42.6526, "lng": -73.7562, "population": 99000 },
    { "name": "New Rochelle", "state": "NY", "lat": 40.9115, "lng": -73.7824, "population": 79000 },
    { "name": "Mount Vernon", "state": "NY", "lat": 40.9126, "lng": -73.8371, "population": 73000 },
    { "name": "Schenectady", "state": "NY", "lat": 42.8142, "lng": -73.9396, "population": 67000 },
    { "name": "Utica", "state": "NY", "lat": 43.1009, "lng": -75.2327, "population": 65000 },

    { "name": "Charlotte", "state": "NC", "lat": 35.2271, "lng": -80.8431, "population": 875000 },
    { "name": "Raleigh", "state": "NC", "lat": 35.7796, "lng": -78.6382, "population": 470000 },
    { "name": "Greensboro", "state": "NC", "lat": 36.0726, "lng": -79.7920, "population": 300000 },
    { "name": "Durham", "state": "NC", "lat": 35.9940, "lng": -78.8986, "population": 285000 },
    { "name": "Winston-Salem", "state": "NC", "lat": 36.0999, "lng": -80.2442, "population": 250000 },
    { "name": "Fayetteville", "state": "NC", "lat": 35.0527, "lng": -78.8784, "population": 210000 },
    { "name": "Cary", "state": "NC", "lat": 35.7915, "lng": -78.7811, "population": 175000 },
    { "name": "Wilmington", "state": "NC", "lat": 34.2104, "lng": -77.8868, "population": 117000 },
    { "name": "High Point", "state": "NC", "lat": 35.9557, "lng": -80.0053, "population": 114000 },

    { "name": "Fargo", "state": "ND", "lat": 46.8772, "lng": -96.7898, "population": 130000 },
    { "name": "Bismarck", "state": "ND", "lat": 46.8083, "lng": -100.7837, "population": 73000 },
    { "name": "Grand Forks", "state": "ND", "lat": 47.9253, "lng": -97.0329, "population": 59000 },
    { "name": "Minot", "state": "ND", "lat": 48.2330, "lng": -101.2956, "population": 48000 },
    { "name": "West Fargo", "state": "ND", "lat": 46.8753, "lng": -96.9000, "population": 38000 },

    { "name": "Columbus", "state": "OH", "lat": 39.9612, "lng": -82.9988, "population": 905000 },
    { "name": "Cleveland", "state": "OH", "lat": 41.4993, "lng": -81.6944, "population": 370000 },
    { "name": "Cincinnati", "state": "OH", "lat": 39.1031, "lng": -84.5120, "population": 310000 },
    { "name": "Toledo", "state": "OH", "lat": 41.6528, "lng": -83.5379, "population": 270000 },
    { "name": "Akron", "state": "OH", "lat": 41.0814, "lng": -81.5190, "population": 190000 },
    { "name": "Dayton", "state": "OH", "lat": 39.7589, "lng": -84.1916, "population": 138000 },
    { "name": "Parma", "state": "OH", "lat": 41.4047, "lng": -81.7229, "population": 80000 },
    { "name": "Canton", "state": "OH", "lat": 40.7989, "lng": -81.3784, "population": 70000 },

    { "name": "Oklahoma City", "state": "OK", "lat": 35.4676, "lng": -97.5164, "population": 690000 },
    { "name": "Tulsa", "state": "OK", "lat": 36.1540, "lng": -95.9928, "population": 410000 },
    { "name": "Norman", "state": "OK", "lat": 35.2226, "lng": -97.4395, "population": 128000 },
    { "name": "Broken Arrow", "state": "OK", "lat": 36.0526, "lng": -95.7908, "population": 116000 },
    { "name": "Lawton", "state": "OK", "lat": 34.6087, "lng": -98.3903, "population": 91000 },
    { "name": "Edmond", "state": "OK", "lat": 35.6528, "lng": -97.4781, "population": 95000 },

    { "name": "Portland", "state": "OR", "lat": 45.5152, "lng": -122.6784, "population": 650000 },
    { "name": "Eugene", "state": "OR", "lat": 44.0521, "lng": -123.0868, "population": 175000 },
    { "name": "Salem", "state": "OR", "lat": 44.9429, "lng": -123.0351, "population": 175000 },
    { "name": "Gresham", "state": "OR", "lat": 45.4978, "lng": -122.4302, "population": 113000 },
    { "name": "Hillsboro", "state": "OR", "lat": 45.5229, "lng": -122.9898, "population": 108000 },
    { "name": "Beaverton", "state": "OR", "lat": 45.4871, "lng": -122.8037, "population": 100000 },
    { "name": "Bend", "state": "OR", "lat": 44.0582, "lng": -121.3153, "population": 102000 },

    { "name": "Philadelphia", "state": "PA", "lat": 39.9526, "lng": -75.1652, "population": 1600000 },
    { "name": "Pittsburgh", "state": "PA", "lat": 40.4406, "lng": -79.9959, "population": 305000 },
    { "name": "Allentown", "state": "PA", "lat": 40.6084, "lng": -75.4902, "population": 125000 },
    { "name": "Erie", "state": "PA", "lat": 42.1292, "lng": -80.0851, "population": 94000 },
    { "name": "Reading", "state": "PA", "lat": 40.3357, "lng": -75.9269, "population": 95000 },
    { "name": "Scranton", "state": "PA", "lat": 41.4090, "lng": -75.6624, "population": 76000 },
    { "name": "Bethlehem", "state": "PA", "lat": 40.6259, "lng": -75.3705, "population": 76000 },
    { "name": "Lancaster", "state": "PA", "lat": 40.0379, "lng": -76.3055, "population": 60000 },

    { "name": "Providence", "state": "RI", "lat": 41.8240, "lng": -71.4128, "population": 191000 },
    { "name": "Warwick", "state": "RI", "lat": 41.7001, "lng": -71.4162, "population": 82000 },
    { "name": "Cranston", "state": "RI", "lat": 41.7798, "lng": -71.4373, "population": 82000 },
    { "name": "Pawtucket", "state": "RI", "lat": 41.8787, "lng": -71.3826, "population": 75000 },
    { "name": "East Providence", "state": "RI", "lat": 41.8137, "lng": -71.3701, "population": 47000 },

    { "name": "Charleston", "state": "SC", "lat": 32.7765, "lng": -79.9311, "population": 150000 },
    { "name": "Columbia", "state": "SC", "lat": 34.0007, "lng": -81.0348, "population": 137000 },
    { "name": "North Charleston", "state": "SC", "lat": 32.8546, "lng": -79.9748, "population": 115000 },
    { "name": "Mount Pleasant", "state": "SC", "lat": 32.7942, "lng": -79.8626, "population": 91000 },
    { "name": "Rock Hill", "state": "SC", "lat": 34.9249, "lng": -81.0251, "population": 75000 },
    { "name": "Greenville", "state": "SC", "lat": 34.8526, "lng": -82.3940, "population": 70000 },

    { "name": "Sioux Falls", "state": "SD", "lat": 43.5446, "lng": -96.7311, "population": 200000 },
    { "name": "Rapid City", "state": "SD", "lat": 44.0805, "lng": -103.2310, "population": 78000 },
    { "name": "Aberdeen", "state": "SD", "lat": 45.4647, "lng": -98.4865, "population": 28000 },
    { "name": "Brookings", "state": "SD", "lat": 44.3114, "lng": -96.7984, "population": 24000 },
    { "name": "Watertown", "state": "SD", "lat": 44.8997, "lng": -97.1142, "population": 22000 },

    { "name": "Nashville", "state": "TN", "lat": 36.1627, "lng": -86.7816, "population": 695000 },
    { "name": "Memphis", "state": "TN", "lat": 35.1495, "lng": -90.0490, "population": 625000 },
    { "name": "Knoxville", "state": "TN", "lat": 35.9606, "lng": -83.9207, "population": 195000 },
    { "name": "Chattanooga", "state": "TN", "lat": 35.0456, "lng": -85.3097, "population": 182000 },
    { "name": "Clarksville", "state": "TN", "lat": 36.5298, "lng": -87.3595, "population": 167000 },
    { "name": "Murfreesboro", "state": "TN", "lat": 35.8456, "lng": -86.3903, "population": 159000 },

    { "name": "Houston", "state": "TX", "lat": 29.7604, "lng": -95.3698, "population": 2310000 },
    { "name": "San Antonio", "state": "TX", "lat": 29.4241, "lng": -98.4936, "population": 1470000 },
    { "name": "Dallas", "state": "TX", "lat": 32.7767, "lng": -96.7970, "population": 1300000 },
    { "name": "Austin", "state": "TX", "lat": 30.2672, "lng": -97.7431, "population": 970000 },
    { "name": "Fort Worth", "state": "TX", "lat": 32.7555, "lng": -97.3308, "population": 960000 },
    { "name": "El Paso", "state": "TX", "lat": 31.7619, "lng": -106.4850, "population": 680000 },
    { "name": "Arlington", "state": "TX", "lat": 32.7357, "lng": -97.1081, "population": 395000 },
    { "name": "Corpus Christi", "state": "TX", "lat": 27.8006, "lng": -97.3964, "population": 320000 },
    { "name": "Plano", "state": "TX", "lat": 33.0198, "lng": -96.6989, "population": 290000 },
    { "name": "Lubbock", "state": "TX", "lat": 33.5779, "lng": -101.8552, "population": 265000 },
    { "name": "Laredo", "state": "TX", "lat": 27.5306, "lng": -99.4803, "population": 260000 },
    { "name": "Garland", "state": "TX", "lat": 32.9126, "lng": -96.6389, "population": 240000 },
    { "name": "Irving", "state": "TX", "lat": 32.8140, "lng": -96.9489, "population": 240000 },
    { "name": "Frisco", "state": "TX", "lat": 33.1507, "lng": -96.8236, "population": 226000 },
    { "name": "McKinney", "state": "TX", "lat": 33.1972, "lng": -96.6398, "population": 200000 },
    { "name": "Amarillo", "state": "TX", "lat": 35.2220, "lng": -101.8313, "population": 200000 },

    { "name": "Salt Lake City", "state": "UT", "lat": 40.7608, "lng": -111.8910, "population": 200000 },
    { "name": "West Valley City", "state": "UT", "lat": 40.6916, "lng": -112.0011, "population": 140000 },
    { "name": "West Jordan", "state": "UT", "lat": 40.6097, "lng": -111.9391, "population": 117000 },
    { "name": "Provo", "state": "UT", "lat": 40.2338, "lng": -111.6585, "population": 116000 },
    { "name": "Orem", "state": "UT", "lat": 40.2969, "lng": -111.6946, "population": 98000 },
    { "name": "Sandy", "state": "UT", "lat": 40.5649, "lng": -111.8389, "population": 95000 },
    { "name": "St. George", "state": "UT", "lat": 37.0965, "lng": -113.5684, "population": 99000 },

    { "name": "Burlington", "state": "VT", "lat": 44.4759, "lng": -73.2121, "population": 44000 },
    { "name": "South Burlington", "state": "VT", "lat": 44.4670, "lng": -73.1709, "population": 20000 },
    { "name": "Rutland", "state": "VT", "lat": 43.6106, "lng": -72.9726, "population": 15000 },
    { "name": "Montpelier", "state": "VT", "lat": 44.2601, "lng": -72.5754, "population": 8000 },

    { "name": "Virginia Beach", "state": "VA", "lat": 36.8529, "lng": -75.9780, "population": 455000 },
    { "name": "Chesapeake", "state": "VA", "lat": 36.7682, "lng": -76.2875, "population": 250000 },
    { "name": "Norfolk", "state": "VA", "lat": 36.8508, "lng": -76.2859, "population": 235000 },
    { "name": "Arlington", "state": "VA", "lat": 38.8816, "lng": -77.0910, "population": 240000 },
    { "name": "Richmond", "state": "VA", "lat": 37.5407, "lng": -77.4360, "population": 230000 },
    { "name": "Newport News", "state": "VA", "lat": 36.9716, "lng": -76.4928, "population": 185000 },
    { "name": "Alexandria", "state": "VA", "lat": 38.8048, "lng": -77.0469, "population": 159000 },
    { "name": "Hampton", "state": "VA", "lat": 37.0299, "lng": -76.3452, "population": 138000 },

    { "name": "Seattle", "state": "WA", "lat": 47.6062, "lng": -122.3321, "population": 750000 },
    { "name": "Spokane", "state": "WA", "lat": 47.6588, "lng": -117.4260, "population": 230000 },
    { "name": "Tacoma", "state": "WA", "lat": 47.2529, "lng": -122.4443, "population": 220000 },
    { "name": "Vancouver", "state": "WA", "lat": 45.6387, "lng": -122.6615, "population": 195000 },
    { "name": "Bellevue", "state": "WA", "lat": 47.6101, "lng": -122.2015, "population": 150000 },
    { "name": "Kent", "state": "WA", "lat": 47.3809, "lng": -122.2348, "population": 137000 },
    { "name": "Everett", "state": "WA", "lat": 47.9790, "lng": -122.2021, "population": 113000 },
    { "name": "Renton", "state": "WA", "lat": 47.4829, "lng": -122.2171, "population": 106000 },
    { "name": "Yakima", "state": "WA", "lat": 46.6021, "lng": -120.5059, "population": 96000 },
    { "name": "Spokane Valley", "state": "WA", "lat": 47.6732, "lng": -117.2394, "population": 102000 },

    { "name": "Charleston", "state": "WV", "lat": 38.3498, "lng": -81.6326, "population": 47000 },
    { "name": "Huntington", "state": "WV", "lat": 38.4192, "lng": -82.4452, "population": 45000 },
    { "name": "Morgantown", "state": "WV", "lat": 39.6295, "lng": -79.9559, "population": 30000 },
    { "name": "Parkersburg", "state": "WV", "lat": 39.2667, "lng": -81.5615, "population": 29000 },
    { "name": "Wheeling", "state": "WV", "lat": 40.0640, "lng": -80.7209, "population": 27000 },

    { "name": "Milwaukee", "state": "WI", "lat": 43.0389, "lng": -87.9065, "population": 570000 },
    { "name": "Madison", "state": "WI", "lat": 43.0731, "lng": -89.4012, "population": 270000 },
    { "name": "Green Bay", "state": "WI", "lat": 44.5133, "lng": -88.0133, "population": 107000 },
    { "name": "Kenosha", "state": "WI", "lat": 42.5847, "lng": -87.8212, "population": 100000 },
    { "name": "Racine", "state": "WI", "lat": 42.7261, "lng": -87.7829, "population": 77000 },
    { "name": "Appleton", "state": "WI", "lat": 44.2619, "lng": -88.4154, "population": 75000 },
    { "name": "Waukesha", "state": "WI", "lat": 43.0117, "lng": -88.2315, "population": 71000 },

    { "name": "Cheyenne", "state": "WY", "lat": 41.1400, "lng": -104.8202, "population": 65000 },
    { "name": "Casper", "state": "WY", "lat": 42.8666, "lng": -106.3131, "population": 58000 },
    { "name": "Laramie", "state": "WY", "lat": 41.3114, "lng": -105.5911, "population": 32000 },
    { "name": "Gillette", "state": "WY", "lat": 44.2911, "lng": -105.5022, "population": 32000 },
    { "name": "Rock Springs", "state": "WY", "lat": 41.5875, "lng": -109.2029, "population": 23000 }
  ]
}
