{
  "_README": "USL Championship (D2) + USL League One (D3) host cities — verified from uslchampionship.com / uslleagueone.com 2025 season rosters. All US-based; Canadian sides excluded. Lat/lng = city/stadium-area approximations.",
  "_LAST_UPDATED": "2026-05-04",
  "_SOURCE": "uslchampionship.com + uslleagueone.com — 2025 season clubs + Wikipedia (2025 season pages, current season at fetch time)",
  "championship": [
    { "name": "Birmingham Legion FC", "city": "Birmingham", "state": "AL", "lat": 33.5186, "lng": -86.8104, "league": "USLC" },
    { "name": "Charleston Battery", "city": "Mount Pleasant", "state": "SC", "lat": 32.7942, "lng": -79.8626, "league": "USLC" },
    { "name": "Colorado Springs Switchbacks FC", "city": "Colorado Springs", "state": "CO", "lat": 38.8339, "lng": -104.8214, "league": "USLC" },
    { "name": "Detroit City FC", "city": "Hamtramck", "state": "MI", "lat": 42.3934, "lng": -83.0496, "league": "USLC" },
    { "name": "El Paso Locomotive FC", "city": "El Paso", "state": "TX", "lat": 31.7619, "lng": -106.4850, "league": "USLC" },
    { "name": "FC Tulsa", "city": "Tulsa", "state": "OK", "lat": 36.1540, "lng": -95.9928, "league": "USLC" },
    { "name": "Hartford Athletic", "city": "Hartford", "state": "CT", "lat": 41.7658, "lng": -72.6734, "league": "USLC" },
    { "name": "Indy Eleven", "city": "Indianapolis", "state": "IN", "lat": 39.7684, "lng": -86.1581, "league": "USLC" },
    { "name": "Las Vegas Lights FC", "city": "Las Vegas", "state": "NV", "lat": 36.1699, "lng": -115.1398, "league": "USLC" },
    { "name": "Lexington Sporting Club", "city": "Lexington", "state": "KY", "lat": 38.0406, "lng": -84.5037, "league": "USLC" },
    { "name": "Loudoun United FC", "city": "Leesburg", "state": "VA", "lat": 39.1157, "lng": -77.5636, "league": "USLC" },
    { "name": "Louisville City FC", "city": "Louisville", "state": "KY", "lat": 38.2527, "lng": -85.7585, "league": "USLC" },
    { "name": "Miami FC", "city": "Miami", "state": "FL", "lat": 25.7617, "lng": -80.1918, "league": "USLC" },
    { "name": "Monterey Bay FC", "city": "Seaside", "state": "CA", "lat": 36.6111, "lng": -121.8516, "league": "USLC" },
    { "name": "New Mexico United", "city": "Albuquerque", "state": "NM", "lat": 35.0844, "lng": -106.6504, "league": "USLC" },
    { "name": "North Carolina FC", "city": "Cary", "state": "NC", "lat": 35.7915, "lng": -78.7811, "league": "USLC" },
    { "name": "Oakland Roots SC", "city": "Oakland", "state": "CA", "lat": 37.8044, "lng": -122.2712, "league": "USLC" },
    { "name": "Orange County SC", "city": "Irvine", "state": "CA", "lat": 33.6846, "lng": -117.8265, "league": "USLC" },
    { "name": "Phoenix Rising FC", "city": "Phoenix", "state": "AZ", "lat": 33.4484, "lng": -112.0740, "league": "USLC" },
    { "name": "Pittsburgh Riverhounds SC", "city": "Pittsburgh", "state": "PA", "lat": 40.4406, "lng": -79.9959, "league": "USLC" },
    { "name": "Rhode Island FC", "city": "Pawtucket", "state": "RI", "lat": 41.8787, "lng": -71.3826, "league": "USLC" },
    { "name": "Sacramento Republic FC", "city": "Sacramento", "state": "CA", "lat": 38.5816, "lng": -121.4944, "league": "USLC" },
    { "name": "San Antonio FC", "city": "San Antonio", "state": "TX", "lat": 29.4241, "lng": -98.4936, "league": "USLC" },
    { "name": "Tampa Bay Rowdies", "city": "St. Petersburg", "state": "FL", "lat": 27.7676, "lng": -82.6403, "league": "USLC" }
  ],
  "league_one": [
    { "name": "AV Alta FC", "city": "Lancaster", "state": "CA", "lat": 34.6868, "lng": -118.1542, "league": "USL1" },
    { "name": "Charlotte Independence", "city": "Charlotte", "state": "NC", "lat": 35.2271, "lng": -80.8431, "league": "USL1" },
    { "name": "Chattanooga Red Wolves SC", "city": "Chattanooga", "state": "TN", "lat": 35.0456, "lng": -85.3097, "league": "USL1" },
    { "name": "FC Naples", "city": "Naples", "state": "FL", "lat": 26.1420, "lng": -81.7948, "league": "USL1" },
    { "name": "Forward Madison FC", "city": "Madison", "state": "WI", "lat": 43.0731, "lng": -89.4012, "league": "USL1" },
    { "name": "Greenville Triumph SC", "city": "Greenville", "state": "SC", "lat": 34.8526, "lng": -82.3940, "league": "USL1" },
    { "name": "One Knoxville SC", "city": "Knoxville", "state": "TN", "lat": 35.9606, "lng": -83.9207, "league": "USL1" },
    { "name": "Portland Hearts of Pine", "city": "Portland", "state": "ME", "lat": 43.6591, "lng": -70.2568, "league": "USL1" },
    { "name": "South Georgia Tormenta FC", "city": "Statesboro", "state": "GA", "lat": 32.4488, "lng": -81.7832, "league": "USL1" },
    { "name": "Spokane Velocity FC", "city": "Spokane", "state": "WA", "lat": 47.6588, "lng": -117.4260, "league": "USL1" },
    { "name": "Texoma FC", "city": "Sherman", "state": "TX", "lat": 33.6357, "lng": -96.6089, "league": "USL1" },
    { "name": "Union Omaha", "city": "Omaha", "state": "NE", "lat": 41.2565, "lng": -95.9345, "league": "USL1" },
    { "name": "Westchester SC", "city": "Mount Vernon", "state": "NY", "lat": 40.9126, "lng": -73.8371, "league": "USL1" }
  ]
}
